acquisition_duration,acquisition_period,acquisition_time,altitude,ambient_magnetic_field_x,ambient_magnetic_field_y,ambient_magnetic_field_z,ambient_temperature,device_arch,device_os,device_user_agent,event_id,latitude,longitude,minbias,sensor_id,roll,pitch,yaw,atmospheric_pressure,relative_humidity,path
1278,0,2015-07-06 14:56:13.652000,226,13,13.9375,-45.9375,,armv7l,2.6.32.21-g7a207a4,Dalvik/1.2.0 (Linux; U; Android 2.2; PB99400 Build/FRF91),223424418,43.06,-89.44,0,DECO-ffffffff-85e3-b427-9611-987d0033c587,-1,0,319,,,2015.07.07/223424418_medium.png
1166,0,2015-07-06 16:52:07.019000,267,13,13.9375,-45.9375,,armv7l,2.6.32.21-g7a207a4,Dalvik/1.2.0 (Linux; U; Android 2.2; PB99400 Build/FRF91),223428537,43.06,-89.44,0,DECO-ffffffff-85e3-b427-9611-987d0033c587,-1,0,319,,,2015.07.07/223428537.png
1287,0,2015-07-06 23:14:23.583000,283,13,13.9375,-45.9375,,armv7l,2.6.32.21-g7a207a4,Dalvik/1.2.0 (Linux; U; Android 2.2; PB99400 Build/FRF91),223442442,43.06,-89.44,0,DECO-ffffffff-85e3-b427-9611-987d0033c587,-1,0,319,,,2015.07.07/223442442.png
1125,0,2015-07-07 08:50:13.009000,271,3.8125,1.5625,-47.8125,,armv7l,2.6.32.21-g7a207a4,Dalvik/1.2.0 (Linux; U; Android 2.2; PB99400 Build/FRF91),223462603,43.06,-89.44,0,DECO-ffffffff-85e3-b427-9611-987d0033c587,0,-7,341,,,2015.07.08/223462603.png
1288,0,2015-07-08 04:58:28.022000,236,3.8125,1.5625,-47.8125,,armv7l,2.6.32.21-g7a207a4,Dalvik/1.2.0 (Linux; U; Android 2.2; PB99400 Build/FRF91),223506055,43.06,-89.44,0,DECO-ffffffff-85e3-b427-9611-987d0033c587,0,-7,341,,,2015.07.08/223506055.png
1126,0,2015-07-08 09:45:48.719000,253,3.8125,1.5625,-47.8125,,armv7l,2.6.32.21-g7a207a4,Dalvik/1.2.0 (Linux; U; Android 2.2; PB99400 Build/FRF91),223515764,43.06,-89.44,0,DECO-ffffffff-85e3-b427-9611-987d0033c587,0,-7,341,,,2015.07.09/223515764.png
965,0,2015-07-09 02:13:51.462000,237,-22,194.9375,142.75,,armv7l,3.4.42-g19638c4,Dalvik/2.1.0 (Linux; U; Android 5.1; XT1096 Build/LPE23.32-25-3),223552780,43.07,-89.39,0,DECO-ffffffff-84c2-5db2-8e25-612a58eb754a,0.078125,-2.1875,6.796875,,,2015.07.09/223552780_medium.png
1017,0,2015-07-09 06:06:23.485000,230,-22.4375,195.125,142.5,,armv7l,3.4.42-g19638c4,Dalvik/2.1.0 (Linux; U; Android 5.1; XT1096 Build/LPE23.32-25-3),223552948,43.07,-89.39,0,DECO-ffffffff-84c2-5db2-8e25-612a58eb754a,0.078125,-2.046875,6.734375,,,2015.07.09/223552948_medium.png
1113,0,2015-07-09 06:55:56.565000,391,-22.625,195.4375,143.0625,,armv7l,3.4.42-g19638c4,Dalvik/2.1.0 (Linux; U; Android 5.1; XT1096 Build/LPE23.32-25-3),223553571,43.07,-89.39,0,DECO-ffffffff-84c2-5db2-8e25-612a58eb754a,0.171875,-1.796875,6.75,,,2015.07.09/223553571_medium.png
992,0,2015-07-09 09:23:33.478000,216.39999389648,-54.411998748779,54.706001281738,-68.823997497559,,armv7l,3.0.8-1264835,Dalvik/1.6.0 (Linux; U; Android 4.0.4; GT-S7560 Build/IMM76I),223559181,48.61,7.69,0,DECO-ffffffff-f39f-524d-ad00-ca6f1237c76a,-1,2,47,,,2015.07.10/223559181_medium.png
992,0,2015-07-09 10:15:07.659000,216.39999389648,-54.706001281738,54.706001281738,-68.823997497559,,armv7l,3.0.8-1264835,Dalvik/1.6.0 (Linux; U; Android 4.0.4; GT-S7560 Build/IMM76I),223561146,48.61,7.69,0,DECO-ffffffff-f39f-524d-ad00-ca6f1237c76a,0,3,47,,,2015.07.10/223561146.png
1180,0,2015-07-09 11:21:40.016000,255,3.8125,1.5625,-47.8125,,armv7l,2.6.32.21-g7a207a4,Dalvik/1.2.0 (Linux; U; Android 2.2; PB99400 Build/FRF91),223563615,43.06,-89.44,0,DECO-ffffffff-85e3-b427-9611-987d0033c587,0,-7,341,,,2015.07.10/223563615.png
1218,0,2015-07-09 12:30:23.287000,287,3.8125,1.5625,-47.8125,,armv7l,2.6.32.21-g7a207a4,Dalvik/1.2.0 (Linux; U; Android 2.2; PB99400 Build/FRF91),223566182,43.06,-89.44,0,DECO-ffffffff-85e3-b427-9611-987d0033c587,0,-7,341,,,2015.07.10/223566182.png
1169,0,2015-07-09 18:20:39.866000,283,-22.0625,195.125,142.5,,armv7l,3.4.42-g19638c4,Dalvik/2.1.0 (Linux; U; Android 5.1; XT1096 Build/LPE23.32-25-3),223575534,43.07,-89.39,0,DECO-ffffffff-84c2-5db2-8e25-612a58eb754a,0.078125,-2.265625,6.609375,,,2015.07.10/223575534_medium.png
1177,0,2015-07-10 01:00:25.701000,252,3.8125,1.5625,-47.8125,,armv7l,2.6.32.21-g7a207a4,Dalvik/1.2.0 (Linux; U; Android 2.2; PB99400 Build/FRF91),223586421,43.06,-89.44,0,DECO-ffffffff-85e3-b427-9611-987d0033c587,0,-7,341,,,2015.07.10/223586421.png
1130,0,2015-07-10 04:09:14.653000,243,3.8125,1.5625,-47.8125,,armv7l,2.6.32.21-g7a207a4,Dalvik/1.2.0 (Linux; U; Android 2.2; PB99400 Build/FRF91),223592993,43.06,-89.44,0,DECO-ffffffff-85e3-b427-9611-987d0033c587,0,-7,341,,,2015.07.10/223592993.png
1273,0,2015-07-10 06:17:54.209000,222,3.8125,1.5625,-47.8125,,armv7l,2.6.32.21-g7a207a4,Dalvik/1.2.0 (Linux; U; Android 2.2; PB99400 Build/FRF91),223597414,43.06,-89.44,0,DECO-ffffffff-85e3-b427-9611-987d0033c587,0,-7,341,,,2015.07.10/223597414_medium.png
1289,0,2015-07-10 06:46:14.514000,0,26.7578125,-12.5,-13.671875,,armv6l,2.6.35.7,Dalvik/1.4.0 (Linux; U; Android 2.3.5; GT-S5360L Build/GINGERBREAD),223603285,21.09,-101.65,0,DECO-00000000-221b-4040-ffff-ffffbc585e7b,-0.0054931640625,-62.946166992188,284.92492675781,,,2015.07.11/223603285.png
1515,0,2015-07-10 06:46:16.027000,0,23.6328125,-12.5,-12.109375,,armv6l,2.6.35.7,Dalvik/1.4.0 (Linux; U; Android 2.3.5; GT-S5360L Build/GINGERBREAD),223603283,21.09,-101.65,0,DECO-00000000-221b-4040-ffff-ffffbc585e7b,0.8953857421875,-64.984130859375,284.71069335938,,,2015.07.11/223603283_medium.png
1387,0,2015-07-10 06:46:17.767000,0,25.1953125,-11.71875,-12.890625,,armv6l,2.6.35.7,Dalvik/1.4.0 (Linux; U; Android 2.3.5; GT-S5360L Build/GINGERBREAD),223603279,21.09,-101.65,0,DECO-00000000-221b-4040-ffff-ffffbc585e7b,0.8953857421875,-62.946166992188,284.38659667969,,,2015.07.11/223603279_medium.png
1342,0,2015-07-10 06:46:19.376000,0,24.4140625,-12.5,-12.890625,,armv6l,2.6.35.7,Dalvik/1.4.0 (Linux; U; Android 2.3.5; GT-S5360L Build/GINGERBREAD),223603277,21.09,-101.65,0,DECO-00000000-221b-4040-ffff-ffffbc585e7b,0.8953857421875,-62.946166992188,284.69421386719,,,2015.07.11/223603277_medium.png
1392,0,2015-07-10 06:46:20.949000,0,26.7578125,-11.71875,-13.671875,,armv6l,2.6.35.7,Dalvik/1.4.0 (Linux; U; Android 2.3.5; GT-S5360L Build/GINGERBREAD),223603273,21.09,-101.65,0,DECO-00000000-221b-4040-ffff-ffffbc585e7b,0.8953857421875,-64.984130859375,283.99658203125,,,2015.07.11/223603273_medium.png
1307,0,2015-07-10 06:46:22.566000,0,26.7578125,-11.71875,-13.671875,,armv6l,2.6.35.7,Dalvik/1.4.0 (Linux; U; Android 2.3.5; GT-S5360L Build/GINGERBREAD),223603269,21.09,-101.65,0,DECO-00000000-221b-4040-ffff-ffffbc585e7b,0.8953857421875,-62.946166992188,284.70520019531,,,2015.07.11/223603269.png
1325,0,2015-07-10 06:46:27.316000,0,26.7578125,-11.71875,-13.671875,,armv6l,2.6.35.7,Dalvik/1.4.0 (Linux; U; Android 2.3.5; GT-S5360L Build/GINGERBREAD),223603265,21.09,-101.65,0,DECO-00000000-221b-4040-ffff-ffffbc585e7b,0.8953857421875,-62.946166992188,284.70520019531,,,2015.07.11/223603265.png
1426,0,2015-07-10 06:46:28.876000,0,26.7578125,-12.5,-13.671875,,armv6l,2.6.35.7,Dalvik/1.4.0 (Linux; U; Android 2.3.5; GT-S5360L Build/GINGERBREAD),223603263,21.09,-101.65,0,DECO-00000000-221b-4040-ffff-ffffbc585e7b,0.8953857421875,-64.984130859375,285.00732421875,,,2015.07.11/223603263_medium.png
1332,0,2015-07-10 06:46:30.550000,0,25.9765625,-11.71875,-13.671875,,armv6l,2.6.35.7,Dalvik/1.4.0 (Linux; U; Android 2.3.5; GT-S5360L Build/GINGERBREAD),223603259,21.09,-101.65,0,DECO-00000000-221b-4040-ffff-ffffbc585e7b,-0.0054931640625,-62.946166992188,284.16687011719,,,2015.07.11/223603259_medium.png
1371,0,2015-07-10 06:46:33.670000,0,26.7578125,-11.71875,-12.890625,,armv6l,2.6.35.7,Dalvik/1.4.0 (Linux; U; Android 2.3.5; GT-S5360L Build/GINGERBREAD),223603257,21.09,-101.65,0,DECO-00000000-221b-4040-ffff-ffffbc585e7b,-0.0054931640625,-64.984130859375,284.40856933594,,,2015.07.11/223603257.png
1325,0,2015-07-10 06:46:36.809000,0,26.7578125,-11.71875,-13.671875,,armv6l,2.6.35.7,Dalvik/1.4.0 (Linux; U; Android 2.3.5; GT-S5360L Build/GINGERBREAD),223603253,21.09,-101.65,0,DECO-00000000-221b-4040-ffff-ffffbc585e7b,0.8953857421875,-64.984130859375,283.23303222656,,,2015.07.11/223603253_medium.png
1307,0,2015-07-10 06:46:38.358000,0,26.7578125,-11.71875,-13.671875,,armv6l,2.6.35.7,Dalvik/1.4.0 (Linux; U; Android 2.3.5; GT-S5360L Build/GINGERBREAD),223603249,21.09,-101.65,0,DECO-00000000-221b-4040-ffff-ffffbc585e7b,-0.0054931640625,-62.946166992188,284.55139160156,,,2015.07.11/223603249_medium.png
1310,0,2015-07-10 06:46:42.960000,0,26.7578125,-12.5,-16.015625,,armv6l,2.6.35.7,Dalvik/1.4.0 (Linux; U; Android 2.3.5; GT-S5360L Build/GINGERBREAD),223603247,21.09,-101.65,0,DECO-00000000-221b-4040-ffff-ffffbc585e7b,-0.0054931640625,-64.984130859375,284.50744628906,,,2015.07.11/223603247.png
1408,0,2015-07-10 06:46:44.492000,0,26.7578125,-11.71875,-13.671875,,armv6l,2.6.35.7,Dalvik/1.4.0 (Linux; U; Android 2.3.5; GT-S5360L Build/GINGERBREAD),223603243,21.09,-101.65,0,DECO-00000000-221b-4040-ffff-ffffbc585e7b,0.8953857421875,-62.946166992188,284.80407714844,,,2015.07.11/223603243.png
1401,0,2015-07-10 06:46:47.760000,0,25.1953125,-12.5,-12.890625,,armv6l,2.6.35.7,Dalvik/1.4.0 (Linux; U; Android 2.3.5; GT-S5360L Build/GINGERBREAD),223603241,21.09,-101.65,0,DECO-00000000-221b-4040-ffff-ffffbc585e7b,0.8953857421875,-64.984130859375,283.95263671875,,,2015.07.11/223603241_medium.png
1317,0,2015-07-10 06:46:52.523000,0,26.7578125,-11.71875,-13.671875,,armv6l,2.6.35.7,Dalvik/1.4.0 (Linux; U; Android 2.3.5; GT-S5360L Build/GINGERBREAD),223603237,21.09,-101.65,0,DECO-00000000-221b-4040-ffff-ffffbc585e7b,-0.0054931640625,-62.946166992188,284.84802246094,,,2015.07.11/223603237_medium.png
1388,0,2015-07-10 06:46:55.686000,0,26.7578125,-11.71875,-13.671875,,armv6l,2.6.35.7,Dalvik/1.4.0 (Linux; U; Android 2.3.5; GT-S5360L Build/GINGERBREAD),223603233,21.09,-101.65,0,DECO-00000000-221b-4040-ffff-ffffbc585e7b,-0.0054931640625,-62.946166992188,285.55114746094,,,2015.07.11/223603233_medium.png
1349,0,2015-07-10 06:47:03.640000,0,26.7578125,-12.5,-12.890625,,armv6l,2.6.35.7,Dalvik/1.4.0 (Linux; U; Android 2.3.5; GT-S5360L Build/GINGERBREAD),223603231,21.09,-101.65,0,DECO-00000000-221b-4040-ffff-ffffbc585e7b,0.8953857421875,-62.946166992188,283.99658203125,,,2015.07.11/223603231.png
1464,0,2015-07-10 06:47:06.777000,0,26.7578125,-11.71875,-12.890625,,armv6l,2.6.35.7,Dalvik/1.4.0 (Linux; U; Android 2.3.5; GT-S5360L Build/GINGERBREAD),223603227,21.09,-101.65,0,DECO-00000000-221b-4040-ffff-ffffbc585e7b,0.8953857421875,-62.946166992188,285.28198242188,,,2015.07.11/223603227.png
1328,0,2015-07-10 06:47:11.584000,0,26.7578125,-11.71875,-13.671875,,armv6l,2.6.35.7,Dalvik/1.4.0 (Linux; U; Android 2.3.5; GT-S5360L Build/GINGERBREAD),223603225,21.09,-101.65,0,DECO-00000000-221b-4040-ffff-ffffbc585e7b,-0.0054931640625,-62.946166992188,284.86450195312,,,2015.07.11/223603225_medium.png
1425,0,2015-07-10 06:47:13.132000,0,26.7578125,-11.71875,-12.890625,,armv6l,2.6.35.7,Dalvik/1.4.0 (Linux; U; Android 2.3.5; GT-S5360L Build/GINGERBREAD),223603221,21.09,-101.65,0,DECO-00000000-221b-4040-ffff-ffffbc585e7b,-0.0054931640625,-62.946166992188,284.61181640625,,,2015.07.11/223603221_medium.png
1317,0,2015-07-10 06:47:14.783000,0,26.7578125,-11.71875,-14.453125,,armv6l,2.6.35.7,Dalvik/1.4.0 (Linux; U; Android 2.3.5; GT-S5360L Build/GINGERBREAD),223603219,21.09,-101.65,0,DECO-00000000-221b-4040-ffff-ffffbc585e7b,-0.0054931640625,-64.984130859375,285.72692871094,,,2015.07.11/223603219_medium.png
1261,0,2015-07-10 06:47:21.036000,0,26.7578125,-11.71875,-13.671875,,armv6l,2.6.35.7,Dalvik/1.4.0 (Linux; U; Android 2.3.5; GT-S5360L Build/GINGERBREAD),223603215,21.09,-101.65,0,DECO-00000000-221b-4040-ffff-ffffbc585e7b,-0.0054931640625,-62.946166992188,284.39208984375,,,2015.07.11/223603215.png
1313,0,2015-07-10 06:47:50.330000,0,25.9765625,-11.71875,-13.671875,,armv6l,2.6.35.7,Dalvik/1.4.0 (Linux; U; Android 2.3.5; GT-S5360L Build/GINGERBREAD),223603209,21.09,-101.65,0,DECO-00000000-221b-4040-ffff-ffffbc585e7b,0.8953857421875,-62.946166992188,284.94140625,,,2015.07.11/223603209_medium.png
1329,0,2015-07-10 06:47:55.103000,0,25.9765625,-11.71875,-13.671875,,armv6l,2.6.35.7,Dalvik/1.4.0 (Linux; U; Android 2.3.5; GT-S5360L Build/GINGERBREAD),223603203,21.09,-101.65,0,DECO-00000000-221b-4040-ffff-ffffbc585e7b,0.8953857421875,-62.946166992188,285.08972167969,,,2015.07.11/223603203_medium.png
1323,0,2015-07-10 06:48:01.304000,0,23.6328125,-12.5,-10.546875,,armv6l,2.6.35.7,Dalvik/1.4.0 (Linux; U; Android 2.3.5; GT-S5360L Build/GINGERBREAD),223603201,21.09,-101.65,0,DECO-00000000-221b-4040-ffff-ffffbc585e7b,-0.0054931640625,-62.946166992188,283.39233398438,,,2015.07.11/223603201_medium.png
1344,0,2015-07-10 06:48:12.197000,0,25.1953125,-10.9375,-12.109375,,armv6l,2.6.35.7,Dalvik/1.4.0 (Linux; U; Android 2.3.5; GT-S5360L Build/GINGERBREAD),223603197,21.09,-101.65,0,DECO-00000000-221b-4040-ffff-ffffbc585e7b,0.8953857421875,-62.946166992188,283.5791015625,,,2015.07.11/223603197_medium.png
1278,0,2015-07-10 06:48:21.412000,0,25.1953125,-11.71875,-12.890625,,armv6l,2.6.35.7,Dalvik/1.4.0 (Linux; U; Android 2.3.5; GT-S5360L Build/GINGERBREAD),223603193,21.09,-101.65,0,DECO-00000000-221b-4040-ffff-ffffbc585e7b,0.8953857421875,-64.984130859375,283.69995117188,,,2015.07.11/223603193.png
1288,0,2015-07-10 06:51:43.971000,0,22.8515625,-12.5,-12.109375,,armv6l,2.6.35.7,Dalvik/1.4.0 (Linux; U; Android 2.3.5; GT-S5360L Build/GINGERBREAD),223603185,21.09,-101.65,0,DECO-00000000-221b-4040-ffff-ffffbc585e7b,0.8953857421875,-62.946166992188,283.44177246094,,,2015.07.11/223603185.png
1311,0,2015-07-10 06:51:45.481000,0,25.1953125,-11.71875,-13.671875,,armv6l,2.6.35.7,Dalvik/1.4.0 (Linux; U; Android 2.3.5; GT-S5360L Build/GINGERBREAD),223603181,21.09,-101.65,0,DECO-00000000-221b-4040-ffff-ffffbc585e7b,0.8953857421875,-62.946166992188,283.59008789062,,,2015.07.11/223603181_medium.png
1287,0,2015-07-10 06:53:35.745000,0,25.1953125,-10.9375,-12.890625,,armv6l,2.6.35.7,Dalvik/1.4.0 (Linux; U; Android 2.3.5; GT-S5360L Build/GINGERBREAD),223603179,21.09,-101.65,0,DECO-00000000-221b-4040-ffff-ffffbc585e7b,0.8953857421875,-62.946166992188,283.3154296875,,,2015.07.11/223603179.png
1288,0,2015-07-10 06:54:52.779000,0,22.8515625,-12.5,-12.109375,,armv6l,2.6.35.7,Dalvik/1.4.0 (Linux; U; Android 2.3.5; GT-S5360L Build/GINGERBREAD),223603175,21.09,-101.65,0,DECO-00000000-221b-4040-ffff-ffffbc585e7b,-0.0054931640625,-62.946166992188,283.72741699219,,,2015.07.11/223603175_medium.png
1311,0,2015-07-10 06:54:54.283000,0,25.1953125,-11.71875,-12.890625,,armv6l,2.6.35.7,Dalvik/1.4.0 (Linux; U; Android 2.3.5; GT-S5360L Build/GINGERBREAD),223603173,21.09,-101.65,0,DECO-00000000-221b-4040-ffff-ffffbc585e7b,0.8953857421875,-62.946166992188,283.95263671875,,,2015.07.11/223603173.png
1306,0,2015-07-10 06:54:55.815000,0,25.1953125,-11.71875,-13.671875,,armv6l,2.6.35.7,Dalvik/1.4.0 (Linux; U; Android 2.3.5; GT-S5360L Build/GINGERBREAD),223603169,21.09,-101.65,0,DECO-00000000-221b-4040-ffff-ffffbc585e7b,-0.0054931640625,-62.946166992188,284.16687011719,,,2015.07.11/223603169_medium.png
1313,0,2015-07-10 06:54:58.864000,0,25.1953125,-11.71875,-13.671875,,armv6l,2.6.35.7,Dalvik/1.4.0 (Linux; U; Android 2.3.5; GT-S5360L Build/GINGERBREAD),223603163,21.09,-101.65,0,DECO-00000000-221b-4040-ffff-ffffbc585e7b,0.8953857421875,-62.946166992188,283.20007324219,,,2015.07.11/223603163.png
1315,0,2015-07-10 06:55:00.393000,0,25.9765625,-11.71875,-13.671875,,armv6l,2.6.35.7,Dalvik/1.4.0 (Linux; U; Android 2.3.5; GT-S5360L Build/GINGERBREAD),223603159,21.09,-101.65,0,DECO-00000000-221b-4040-ffff-ffffbc585e7b,-0.0054931640625,-62.946166992188,284.47448730469,,,2015.07.11/223603159.png
1300,0,2015-07-10 06:55:01.920000,0,23.6328125,-12.5,-12.890625,,armv6l,2.6.35.7,Dalvik/1.4.0 (Linux; U; Android 2.3.5; GT-S5360L Build/GINGERBREAD),223603157,21.09,-101.65,0,DECO-00000000-221b-4040-ffff-ffffbc585e7b,0.8953857421875,-62.946166992188,283.73291015625,,,2015.07.11/223603157.png
1326,0,2015-07-10 06:55:03.439000,0,25.9765625,-11.71875,-13.671875,,armv6l,2.6.35.7,Dalvik/1.4.0 (Linux; U; Android 2.3.5; GT-S5360L Build/GINGERBREAD),223603153,21.09,-101.65,0,DECO-00000000-221b-4040-ffff-ffffbc585e7b,-0.0054931640625,-62.946166992188,283.71643066406,,,2015.07.11/223603153.png
1297,0,2015-07-10 06:55:04.989000,0,26.7578125,-11.71875,-14.453125,,armv6l,2.6.35.7,Dalvik/1.4.0 (Linux; U; Android 2.3.5; GT-S5360L Build/GINGERBREAD),223603151,21.09,-101.65,0,DECO-00000000-221b-4040-ffff-ffffbc585e7b,-0.0054931640625,-62.946166992188,284.58984375,,,2015.07.11/223603151.png
1320,0,2015-07-10 06:55:06.515000,0,25.9765625,-11.71875,-14.453125,,armv6l,2.6.35.7,Dalvik/1.4.0 (Linux; U; Android 2.3.5; GT-S5360L Build/GINGERBREAD),223603147,21.09,-101.65,0,DECO-00000000-221b-4040-ffff-ffffbc585e7b,0.8953857421875,-62.946166992188,284.17236328125,,,2015.07.11/223603147_medium.png
1309,0,2015-07-10 06:55:08.051000,0,25.9765625,-12.5,-13.671875,,armv6l,2.6.35.7,Dalvik/1.4.0 (Linux; U; Android 2.3.5; GT-S5360L Build/GINGERBREAD),223603145,21.09,-101.65,0,DECO-00000000-221b-4040-ffff-ffffbc585e7b,0.8953857421875,-64.984130859375,284.13940429688,,,2015.07.11/223603145.png
1345,0,2015-07-10 06:55:09.582000,0,25.9765625,-11.71875,-13.671875,,armv6l,2.6.35.7,Dalvik/1.4.0 (Linux; U; Android 2.3.5; GT-S5360L Build/GINGERBREAD),223603141,21.09,-101.65,0,DECO-00000000-221b-4040-ffff-ffffbc585e7b,0.8953857421875,-62.946166992188,283.73291015625,,,2015.07.11/223603141_medium.png
1391,0,2015-07-10 06:55:11.135000,0,22.8515625,-11.71875,-11.328125,,armv6l,2.6.35.7,Dalvik/1.4.0 (Linux; U; Android 2.3.5; GT-S5360L Build/GINGERBREAD),223603137,21.09,-101.65,0,DECO-00000000-221b-4040-ffff-ffffbc585e7b,0.8953857421875,-64.984130859375,283.974609375,,,2015.07.11/223603137.png
1307,0,2015-07-10 06:55:12.739000,0,25.9765625,-10.9375,-12.890625,,armv6l,2.6.35.7,Dalvik/1.4.0 (Linux; U; Android 2.3.5; GT-S5360L Build/GINGERBREAD),223603135,21.09,-101.65,0,DECO-00000000-221b-4040-ffff-ffffbc585e7b,-0.0054931640625,-62.946166992188,284.08996582031,,,2015.07.11/223603135_medium.png
1322,0,2015-07-10 06:55:14.283000,0,22.8515625,-12.5,-11.328125,,armv6l,2.6.35.7,Dalvik/1.4.0 (Linux; U; Android 2.3.5; GT-S5360L Build/GINGERBREAD),223603124,21.09,-101.65,0,DECO-00000000-221b-4040-ffff-ffffbc585e7b,0.8953857421875,-62.946166992188,284.05700683594,,,2015.07.11/223603124.png
1274,0,2015-07-10 06:55:15.817000,0,25.9765625,-12.5,-14.453125,,armv6l,2.6.35.7,Dalvik/1.4.0 (Linux; U; Android 2.3.5; GT-S5360L Build/GINGERBREAD),223603122,21.09,-101.65,0,DECO-00000000-221b-4040-ffff-ffffbc585e7b,0.8953857421875,-62.946166992188,283.83178710938,,,2015.07.11/223603122.png
1456,0,2015-07-10 06:55:17.311000,0,25.1953125,-12.5,-12.890625,,armv6l,2.6.35.7,Dalvik/1.4.0 (Linux; U; Android 2.3.5; GT-S5360L Build/GINGERBREAD),223603114,21.09,-101.65,0,DECO-00000000-221b-4040-ffff-ffffbc585e7b,-0.0054931640625,-62.946166992188,283.44177246094,,,2015.07.11/223603114.png
1305,0,2015-07-10 06:55:18.983000,0,25.9765625,-11.71875,-14.453125,,armv6l,2.6.35.7,Dalvik/1.4.0 (Linux; U; Android 2.3.5; GT-S5360L Build/GINGERBREAD),223603112,21.09,-101.65,0,DECO-00000000-221b-4040-ffff-ffffbc585e7b,0.8953857421875,-62.946166992188,283.81530761719,,,2015.07.11/223603112.png
1310,0,2015-07-10 06:55:20.512000,0,25.9765625,-10.9375,-13.671875,,armv6l,2.6.35.7,Dalvik/1.4.0 (Linux; U; Android 2.3.5; GT-S5360L Build/GINGERBREAD),223603108,21.09,-101.65,0,DECO-00000000-221b-4040-ffff-ffffbc585e7b,-0.0054931640625,-62.946166992188,284.69970703125,,,2015.07.11/223603108_medium.png
1281,0,2015-07-10 06:55:22.032000,0,23.6328125,-11.71875,-12.890625,,armv6l,2.6.35.7,Dalvik/1.4.0 (Linux; U; Android 2.3.5; GT-S5360L Build/GINGERBREAD),223603106,21.09,-101.65,0,DECO-00000000-221b-4040-ffff-ffffbc585e7b,0.8953857421875,-62.946166992188,285.51818847656,,,2015.07.11/223603106_medium.png
1315,0,2015-07-10 06:55:23.556000,0,25.1953125,-11.71875,-13.671875,,armv6l,2.6.35.7,Dalvik/1.4.0 (Linux; U; Android 2.3.5; GT-S5360L Build/GINGERBREAD),223603102,21.09,-101.65,0,DECO-00000000-221b-4040-ffff-ffffbc585e7b,0.8953857421875,-62.946166992188,283.89770507812,,,2015.07.11/223603102_medium.png
1404,0,2015-07-10 06:55:25.096000,0,23.6328125,-11.71875,-12.109375,,armv6l,2.6.35.7,Dalvik/1.4.0 (Linux; U; Android 2.3.5; GT-S5360L Build/GINGERBREAD),223603100,21.09,-101.65,0,DECO-00000000-221b-4040-ffff-ffffbc585e7b,0.8953857421875,-62.946166992188,285.27099609375,,,2015.07.11/223603100.png
1361,0,2015-07-10 06:55:26.740000,0,25.1953125,-11.71875,-12.890625,,armv6l,2.6.35.7,Dalvik/1.4.0 (Linux; U; Android 2.3.5; GT-S5360L Build/GINGERBREAD),223603096,21.09,-101.65,0,DECO-00000000-221b-4040-ffff-ffffbc585e7b,-0.0054931640625,-62.946166992188,283.71643066406,,,2015.07.11/223603096.png
1394,0,2015-07-10 06:55:28.315000,0,25.1953125,-11.71875,-12.890625,,armv6l,2.6.35.7,Dalvik/1.4.0 (Linux; U; Android 2.3.5; GT-S5360L Build/GINGERBREAD),223603092,21.09,-101.65,0,DECO-00000000-221b-4040-ffff-ffffbc585e7b,-0.0054931640625,-62.946166992188,284.08447265625,,,2015.07.11/223603092.png
1306,0,2015-07-10 06:55:29.916000,0,26.7578125,-10.9375,-16.015625,,armv6l,2.6.35.7,Dalvik/1.4.0 (Linux; U; Android 2.3.5; GT-S5360L Build/GINGERBREAD),223603090,21.09,-101.65,0,DECO-00000000-221b-4040-ffff-ffffbc585e7b,0.8953857421875,-62.946166992188,285.32592773438,,,2015.07.11/223603090_medium.png
1362,0,2015-07-10 06:55:31.513000,0,22.8515625,-12.5,-12.109375,,armv6l,2.6.35.7,Dalvik/1.4.0 (Linux; U; Android 2.3.5; GT-S5360L Build/GINGERBREAD),223603086,21.09,-101.65,0,DECO-00000000-221b-4040-ffff-ffffbc585e7b,0.8953857421875,-62.946166992188,283.45275878906,,,2015.07.11/223603086.png
1403,0,2015-07-10 06:55:33.088000,0,25.9765625,-10.9375,-12.890625,,armv6l,2.6.35.7,Dalvik/1.4.0 (Linux; U; Android 2.3.5; GT-S5360L Build/GINGERBREAD),223603082,21.09,-101.65,0,DECO-00000000-221b-4040-ffff-ffffbc585e7b,0.8953857421875,-62.946166992188,284.21081542969,,,2015.07.11/223603082_medium.png
1403,0,2015-07-10 06:55:34.706000,0,24.4140625,-11.71875,-12.890625,,armv6l,2.6.35.7,Dalvik/1.4.0 (Linux; U; Android 2.3.5; GT-S5360L Build/GINGERBREAD),223603080,21.09,-101.65,0,DECO-00000000-221b-4040-ffff-ffffbc585e7b,-0.0054931640625,-62.946166992188,284.00756835938,,,2015.07.11/223603080.png
1296,0,2015-07-10 06:55:36.333000,0,25.9765625,-11.71875,-15.234375,,armv6l,2.6.35.7,Dalvik/1.4.0 (Linux; U; Android 2.3.5; GT-S5360L Build/GINGERBREAD),223603076,21.09,-101.65,0,DECO-00000000-221b-4040-ffff-ffffbc585e7b,0.8953857421875,-62.946166992188,284.7216796875,,,2015.07.11/223603076.png
1319,0,2015-07-10 06:55:37.845000,0,25.1953125,-11.71875,-12.890625,,armv6l,2.6.35.7,Dalvik/1.4.0 (Linux; U; Android 2.3.5; GT-S5360L Build/GINGERBREAD),223603074,21.09,-101.65,0,DECO-00000000-221b-4040-ffff-ffffbc585e7b,0.8953857421875,-62.946166992188,284.30969238281,,,2015.07.11/223603074.png
1417,0,2015-07-10 06:55:39.386000,0,25.1953125,-11.71875,-12.890625,,armv6l,2.6.35.7,Dalvik/1.4.0 (Linux; U; Android 2.3.5; GT-S5360L Build/GINGERBREAD),223603070,21.09,-101.65,0,DECO-00000000-221b-4040-ffff-ffffbc585e7b,0.8953857421875,-62.946166992188,283.63952636719,,,2015.07.11/223603070_medium.png
1273,0,2015-07-10 06:55:41.024000,0,24.4140625,-11.71875,-12.890625,,armv6l,2.6.35.7,Dalvik/1.4.0 (Linux; U; Android 2.3.5; GT-S5360L Build/GINGERBREAD),223603066,21.09,-101.65,0,DECO-00000000-221b-4040-ffff-ffffbc585e7b,-0.0054931640625,-62.946166992188,284.87548828125,,,2015.07.11/223603066.png
1222,0,2015-07-10 06:55:42.604000,0,25.1953125,-11.71875,-12.890625,,armv6l,2.6.35.7,Dalvik/1.4.0 (Linux; U; Android 2.3.5; GT-S5360L Build/GINGERBREAD),223603064,21.09,-101.65,0,DECO-00000000-221b-4040-ffff-ffffbc585e7b,0.8953857421875,-62.946166992188,283.33190917969,,,2015.07.11/223603064.png
1413,0,2015-07-10 06:55:44.042000,0,25.1953125,-11.71875,-12.890625,,armv6l,2.6.35.7,Dalvik/1.4.0 (Linux; U; Android 2.3.5; GT-S5360L Build/GINGERBREAD),223603060,21.09,-101.65,0,DECO-00000000-221b-4040-ffff-ffffbc585e7b,-0.0054931640625,-62.946166992188,284.24377441406,,,2015.07.11/223603060.png
1283,0,2015-07-10 06:55:45.671000,0,25.9765625,-11.71875,-14.453125,,armv6l,2.6.35.7,Dalvik/1.4.0 (Linux; U; Android 2.3.5; GT-S5360L Build/GINGERBREAD),223603058,21.09,-101.65,0,DECO-00000000-221b-4040-ffff-ffffbc585e7b,0.8953857421875,-62.946166992188,285.34790039062,,,2015.07.11/223603058_medium.png
1325,0,2015-07-10 06:55:47.265000,0,25.1953125,-11.71875,-12.890625,,armv6l,2.6.35.7,Dalvik/1.4.0 (Linux; U; Android 2.3.5; GT-S5360L Build/GINGERBREAD),223603054,21.09,-101.65,0,DECO-00000000-221b-4040-ffff-ffffbc585e7b,-0.0054931640625,-62.946166992188,283.04077148438,,,2015.07.11/223603054.png
1392,0,2015-07-10 06:55:48.806000,0,25.1953125,-11.71875,-12.890625,,armv6l,2.6.35.7,Dalvik/1.4.0 (Linux; U; Android 2.3.5; GT-S5360L Build/GINGERBREAD),223603050,21.09,-101.65,0,DECO-00000000-221b-4040-ffff-ffffbc585e7b,-0.0054931640625,-62.946166992188,283.89770507812,,,2015.07.11/223603050_medium.png
1286,0,2015-07-10 06:55:50.414000,0,24.4140625,-11.71875,-12.890625,,armv6l,2.6.35.7,Dalvik/1.4.0 (Linux; U; Android 2.3.5; GT-S5360L Build/GINGERBREAD),223603048,21.09,-101.65,0,DECO-00000000-221b-4040-ffff-ffffbc585e7b,-0.0054931640625,-62.946166992188,285.04577636719,,,2015.07.11/223603048_medium.png
1226,0,2015-07-10 06:55:52.064000,0,25.1953125,-11.71875,-12.890625,,armv6l,2.6.35.7,Dalvik/1.4.0 (Linux; U; Android 2.3.5; GT-S5360L Build/GINGERBREAD),223603044,21.09,-101.65,0,DECO-00000000-221b-4040-ffff-ffffbc585e7b,-0.0054931640625,-64.984130859375,283.68347167969,,,2015.07.11/223603044.png
1406,0,2015-07-10 06:55:53.504000,0,25.1953125,-11.71875,-12.890625,,armv6l,2.6.35.7,Dalvik/1.4.0 (Linux; U; Android 2.3.5; GT-S5360L Build/GINGERBREAD),223603042,21.09,-101.65,0,DECO-00000000-221b-4040-ffff-ffffbc585e7b,0.8953857421875,-62.946166992188,283.89770507812,,,2015.07.11/223603042_medium.png
1303,0,2015-07-10 06:55:55.119000,0,25.9765625,-11.71875,-14.453125,,armv6l,2.6.35.7,Dalvik/1.4.0 (Linux; U; Android 2.3.5; GT-S5360L Build/GINGERBREAD),223603038,21.09,-101.65,0,DECO-00000000-221b-4040-ffff-ffffbc585e7b,0.8953857421875,-62.946166992188,284.85900878906,,,2015.07.11/223603038_medium.png
1015,0,2015-07-10 06:55:57.255000,0,22.8515625,-11.71875,-11.328125,,armv6l,2.6.35.7,Dalvik/1.4.0 (Linux; U; Android 2.3.5; GT-S5360L Build/GINGERBREAD),223603034,21.09,-101.65,0,DECO-00000000-221b-4040-ffff-ffffbc585e7b,0.8953857421875,-62.946166992188,283.09020996094,,,2015.07.11/223603034.png
1298,0,2015-07-10 06:55:58.678000,0,25.1953125,-10.9375,-12.890625,,armv6l,2.6.35.7,Dalvik/1.4.0 (Linux; U; Android 2.3.5; GT-S5360L Build/GINGERBREAD),223603032,21.09,-101.65,0,DECO-00000000-221b-4040-ffff-ffffbc585e7b,-0.0054931640625,-62.946166992188,283.90319824219,,,2015.07.11/223603032_medium.png
1377,0,2015-07-10 06:56:00.190000,0,25.9765625,-11.71875,-13.671875,,armv6l,2.6.35.7,Dalvik/1.4.0 (Linux; U; Android 2.3.5; GT-S5360L Build/GINGERBREAD),223603028,21.09,-101.65,0,DECO-00000000-221b-4040-ffff-ffffbc585e7b,0.8953857421875,-62.946166992188,284.65576171875,,,2015.07.11/223603028_medium.png
1254,0,2015-07-10 06:56:01.840000,0,25.1953125,-11.71875,-13.671875,,armv6l,2.6.35.7,Dalvik/1.4.0 (Linux; U; Android 2.3.5; GT-S5360L Build/GINGERBREAD),223603026,21.09,-101.65,0,DECO-00000000-221b-4040-ffff-ffffbc585e7b,-0.0054931640625,-62.946166992188,283.85375976562,,,2015.07.11/223603026.png
1335,0,2015-07-10 06:56:03.309000,0,23.6328125,-11.71875,-12.890625,,armv6l,2.6.35.7,Dalvik/1.4.0 (Linux; U; Android 2.3.5; GT-S5360L Build/GINGERBREAD),223603022,21.09,-101.65,0,DECO-00000000-221b-4040-ffff-ffffbc585e7b,0.8953857421875,-64.984130859375,283.85925292969,,,2015.07.11/223603022.png
1307,0,2015-07-10 06:56:04.858000,0,22.8515625,-11.71875,-11.328125,,armv6l,2.6.35.7,Dalvik/1.4.0 (Linux; U; Android 2.3.5; GT-S5360L Build/GINGERBREAD),223603020,21.09,-101.65,0,DECO-00000000-221b-4040-ffff-ffffbc585e7b,-0.0054931640625,-62.946166992188,283.58459472656,,,2015.07.11/223603020.png
1284,0,2015-07-10 06:56:06.379000,0,23.6328125,-11.71875,-12.890625,,armv6l,2.6.35.7,Dalvik/1.4.0 (Linux; U; Android 2.3.5; GT-S5360L Build/GINGERBREAD),223603016,21.09,-101.65,0,DECO-00000000-221b-4040-ffff-ffffbc585e7b,-0.0054931640625,-62.946166992188,283.94714355469,,,2015.07.11/223603016_medium.png
1338,0,2015-07-10 06:56:07.885000,0,23.6328125,-11.71875,-12.890625,,armv6l,2.6.35.7,Dalvik/1.4.0 (Linux; U; Android 2.3.5; GT-S5360L Build/GINGERBREAD),223603012,21.09,-101.65,0,DECO-00000000-221b-4040-ffff-ffffbc585e7b,0.8953857421875,-62.946166992188,283.33190917969,,,2015.07.11/223603012_medium.png
1305,0,2015-07-10 06:56:09.441000,0,22.0703125,-11.71875,-11.328125,,armv6l,2.6.35.7,Dalvik/1.4.0 (Linux; U; Android 2.3.5; GT-S5360L Build/GINGERBREAD),223603010,21.09,-101.65,0,DECO-00000000-221b-4040-ffff-ffffbc585e7b,0.8953857421875,-62.946166992188,283.798828125,,,2015.07.11/223603010_medium.png
1290,0,2015-07-10 06:56:10.961000,0,25.9765625,-11.71875,-14.453125,,armv6l,2.6.35.7,Dalvik/1.4.0 (Linux; U; Android 2.3.5; GT-S5360L Build/GINGERBREAD),223603006,21.09,-101.65,0,DECO-00000000-221b-4040-ffff-ffffbc585e7b,0.8953857421875,-62.946166992188,283.974609375,,,2015.07.11/223603006.png
955,0,2015-07-10 06:56:12.811000,0,26.7578125,-10.9375,-13.671875,,armv6l,2.6.35.7,Dalvik/1.4.0 (Linux; U; Android 2.3.5; GT-S5360L Build/GINGERBREAD),223603000,21.09,-101.65,0,DECO-00000000-221b-4040-ffff-ffffbc585e7b,-0.0054931640625,-62.946166992188,283.94165039062,,,2015.07.11/223603000_medium.png
1171,0,2015-07-10 06:56:14.158000,0,25.1953125,-11.71875,-12.890625,,armv6l,2.6.35.7,Dalvik/1.4.0 (Linux; U; Android 2.3.5; GT-S5360L Build/GINGERBREAD),223602998,21.09,-101.65,0,DECO-00000000-221b-4040-ffff-ffffbc585e7b,0.8953857421875,-62.946166992188,284.10095214844,,,2015.07.11/223602998.png
1271,0,2015-07-10 06:56:15.559000,0,24.4140625,-11.71875,-12.890625,,armv6l,2.6.35.7,Dalvik/1.4.0 (Linux; U; Android 2.3.5; GT-S5360L Build/GINGERBREAD),223602994,21.09,-101.65,0,DECO-00000000-221b-4040-ffff-ffffbc585e7b,0.8953857421875,-62.946166992188,284.51843261719,,,2015.07.11/223602994_medium.png
1145,0,2015-07-10 06:56:17.201000,0,22.8515625,-11.71875,-12.890625,,armv6l,2.6.35.7,Dalvik/1.4.0 (Linux; U; Android 2.3.5; GT-S5360L Build/GINGERBREAD),223602992,21.09,-101.65,0,DECO-00000000-221b-4040-ffff-ffffbc585e7b,0.8953857421875,-62.946166992188,283.69445800781,,,2015.07.11/223602992.png
1197,0,2015-07-10 06:56:18.713000,0,22.8515625,-12.5,-11.328125,,armv6l,2.6.35.7,Dalvik/1.4.0 (Linux; U; Android 2.3.5; GT-S5360L Build/GINGERBREAD),223602986,21.09,-101.65,0,DECO-00000000-221b-4040-ffff-ffffbc585e7b,0.8953857421875,-62.946166992188,283.67797851562,,,2015.07.11/223602986_medium.png
1496,0,2015-07-10 06:56:20.126000,0,25.9765625,-11.71875,-13.671875,,armv6l,2.6.35.7,Dalvik/1.4.0 (Linux; U; Android 2.3.5; GT-S5360L Build/GINGERBREAD),223602982,21.09,-101.65,0,DECO-00000000-221b-4040-ffff-ffffbc585e7b,0.8953857421875,-62.946166992188,284.52392578125,,,2015.07.11/223602982_medium.png
1293,0,2015-07-10 06:56:21.846000,0,25.9765625,-11.71875,-13.671875,,armv6l,2.6.35.7,Dalvik/1.4.0 (Linux; U; Android 2.3.5; GT-S5360L Build/GINGERBREAD),223602980,21.09,-101.65,0,DECO-00000000-221b-4040-ffff-ffffbc585e7b,-0.0054931640625,-62.946166992188,284.68322753906,,,2015.07.11/223602980.png
1319,0,2015-07-10 06:56:23.387000,0,25.1953125,-11.71875,-12.890625,,armv6l,2.6.35.7,Dalvik/1.4.0 (Linux; U; Android 2.3.5; GT-S5360L Build/GINGERBREAD),223602976,21.09,-101.65,0,DECO-00000000-221b-4040-ffff-ffffbc585e7b,0.8953857421875,-62.946166992188,283.78234863281,,,2015.07.11/223602976_medium.png
1308,0,2015-07-10 06:56:24.926000,0,23.6328125,-11.71875,-12.109375,,armv6l,2.6.35.7,Dalvik/1.4.0 (Linux; U; Android 2.3.5; GT-S5360L Build/GINGERBREAD),223602974,21.09,-101.65,0,DECO-00000000-221b-4040-ffff-ffffbc585e7b,-0.0054931640625,-64.984130859375,283.74938964844,,,2015.07.11/223602974.png
1382,0,2015-07-10 06:56:26.468000,0,25.1953125,-11.71875,-12.890625,,armv6l,2.6.35.7,Dalvik/1.4.0 (Linux; U; Android 2.3.5; GT-S5360L Build/GINGERBREAD),223602970,21.09,-101.65,0,DECO-00000000-221b-4040-ffff-ffffbc585e7b,0.8953857421875,-62.946166992188,284.05151367188,,,2015.07.11/223602970_medium.png
1310,0,2015-07-10 06:56:28.068000,0,25.1953125,-11.71875,-12.890625,,armv6l,2.6.35.7,Dalvik/1.4.0 (Linux; U; Android 2.3.5; GT-S5360L Build/GINGERBREAD),223602966,21.09,-101.65,0,DECO-00000000-221b-4040-ffff-ffffbc585e7b,0.8953857421875,-62.946166992188,283.84826660156,,,2015.07.11/223602966.png
1355,0,2015-07-10 06:56:29.588000,0,23.6328125,-12.5,-12.109375,,armv6l,2.6.35.7,Dalvik/1.4.0 (Linux; U; Android 2.3.5; GT-S5360L Build/GINGERBREAD),223602964,21.09,-101.65,0,DECO-00000000-221b-4040-ffff-ffffbc585e7b,0.8953857421875,-62.946166992188,283.38134765625,,,2015.07.11/223602964.png
1302,0,2015-07-10 06:56:31.158000,0,25.9765625,-11.71875,-13.671875,,armv6l,2.6.35.7,Dalvik/1.4.0 (Linux; U; Android 2.3.5; GT-S5360L Build/GINGERBREAD),223602960,21.09,-101.65,0,DECO-00000000-221b-4040-ffff-ffffbc585e7b,-0.0054931640625,-64.984130859375,285.4248046875,,,2015.07.11/223602960_medium.png
1198,0,2015-07-10 06:56:32.814000,0,25.1953125,-11.71875,-13.671875,,armv6l,2.6.35.7,Dalvik/1.4.0 (Linux; U; Android 2.3.5; GT-S5360L Build/GINGERBREAD),223602958,21.09,-101.65,0,DECO-00000000-221b-4040-ffff-ffffbc585e7b,-0.0054931640625,-62.946166992188,283.51318359375,,,2015.07.11/223602958_medium.png
1244,0,2015-07-10 06:56:34.295000,0,22.8515625,-11.71875,-11.328125,,armv6l,2.6.35.7,Dalvik/1.4.0 (Linux; U; Android 2.3.5; GT-S5360L Build/GINGERBREAD),223602952,21.09,-101.65,0,DECO-00000000-221b-4040-ffff-ffffbc585e7b,-0.0054931640625,-62.946166992188,283.65051269531,,,2015.07.11/223602952.png
1290,0,2015-07-10 06:56:35.752000,0,25.9765625,-11.71875,-13.671875,,armv6l,2.6.35.7,Dalvik/1.4.0 (Linux; U; Android 2.3.5; GT-S5360L Build/GINGERBREAD),223602950,21.09,-101.65,0,DECO-00000000-221b-4040-ffff-ffffbc585e7b,0.8953857421875,-62.946166992188,284.71618652344,,,2015.07.11/223602950.png
1239,0,2015-07-10 06:56:37.330000,0,25.9765625,-10.9375,-13.671875,,armv6l,2.6.35.7,Dalvik/1.4.0 (Linux; U; Android 2.3.5; GT-S5360L Build/GINGERBREAD),223602946,21.09,-101.65,0,DECO-00000000-221b-4040-ffff-ffffbc585e7b,0.8953857421875,-62.946166992188,283.52966308594,,,2015.07.11/223602946_medium.png
1383,0,2015-07-10 06:56:38.801000,0,25.1953125,-11.71875,-12.890625,,armv6l,2.6.35.7,Dalvik/1.4.0 (Linux; U; Android 2.3.5; GT-S5360L Build/GINGERBREAD),223602944,21.09,-101.65,0,DECO-00000000-221b-4040-ffff-ffffbc585e7b,0.8953857421875,-62.946166992188,284.12841796875,,,2015.07.11/223602944.png
1129,0,2015-07-10 06:56:44.089000,0,22.0703125,-11.71875,-11.328125,,armv6l,2.6.35.7,Dalvik/1.4.0 (Linux; U; Android 2.3.5; GT-S5360L Build/GINGERBREAD),223602940,21.09,-101.65,0,DECO-00000000-221b-4040-ffff-ffffbc585e7b,-0.0054931640625,-62.946166992188,283.50769042969,,,2015.07.11/223602940.png
1330,0,2015-07-10 06:56:45.433000,0,25.1953125,-11.71875,-12.890625,,armv6l,2.6.35.7,Dalvik/1.4.0 (Linux; U; Android 2.3.5; GT-S5360L Build/GINGERBREAD),223602936,21.09,-101.65,0,DECO-00000000-221b-4040-ffff-ffffbc585e7b,0.8953857421875,-64.984130859375,283.40881347656,,,2015.07.11/223602936_medium.png
1329,0,2015-07-10 06:56:46.989000,0,25.1953125,-11.71875,-12.890625,,armv6l,2.6.35.7,Dalvik/1.4.0 (Linux; U; Android 2.3.5; GT-S5360L Build/GINGERBREAD),223602934,21.09,-101.65,0,DECO-00000000-221b-4040-ffff-ffffbc585e7b,-0.0054931640625,-62.946166992188,283.06823730469,,,2015.07.11/223602934_medium.png
1314,0,2015-07-10 06:56:48.534000,0,25.1953125,-11.71875,-12.890625,,armv6l,2.6.35.7,Dalvik/1.4.0 (Linux; U; Android 2.3.5; GT-S5360L Build/GINGERBREAD),223602930,21.09,-101.65,0,DECO-00000000-221b-4040-ffff-ffffbc585e7b,-0.0054931640625,-62.946166992188,283.43078613281,,,2015.07.11/223602930.png
1297,0,2015-07-10 06:56:50.080000,0,25.1953125,-11.71875,-12.890625,,armv6l,2.6.35.7,Dalvik/1.4.0 (Linux; U; Android 2.3.5; GT-S5360L Build/GINGERBREAD),223602928,21.09,-101.65,0,DECO-00000000-221b-4040-ffff-ffffbc585e7b,-0.0054931640625,-62.946166992188,283.46923828125,,,2015.07.11/223602928.png
1299,0,2015-07-10 06:56:51.597000,0,25.9765625,-10.9375,-13.671875,,armv6l,2.6.35.7,Dalvik/1.4.0 (Linux; U; Android 2.3.5; GT-S5360L Build/GINGERBREAD),223602924,21.09,-101.65,0,DECO-00000000-221b-4040-ffff-ffffbc585e7b,0.8953857421875,-62.946166992188,284.75463867188,,,2015.07.11/223602924_medium.png
1310,0,2015-07-10 06:56:53.104000,0,25.1953125,-11.71875,-12.890625,,armv6l,2.6.35.7,Dalvik/1.4.0 (Linux; U; Android 2.3.5; GT-S5360L Build/GINGERBREAD),223602920,21.09,-101.65,0,DECO-00000000-221b-4040-ffff-ffffbc585e7b,0.8953857421875,-62.946166992188,282.86499023438,,,2015.07.11/223602920.png
1306,0,2015-07-10 06:56:54.651000,0,25.1953125,-10.9375,-13.671875,,armv6l,2.6.35.7,Dalvik/1.4.0 (Linux; U; Android 2.3.5; GT-S5360L Build/GINGERBREAD),223602918,21.09,-101.65,0,DECO-00000000-221b-4040-ffff-ffffbc585e7b,0.8953857421875,-62.946166992188,283.67248535156,,,2015.07.11/223602918_medium.png
1276,0,2015-07-10 06:56:56.186000,0,25.1953125,-10.9375,-12.890625,,armv6l,2.6.35.7,Dalvik/1.4.0 (Linux; U; Android 2.3.5; GT-S5360L Build/GINGERBREAD),223602914,21.09,-101.65,0,DECO-00000000-221b-4040-ffff-ffffbc585e7b,0.8953857421875,-62.946166992188,284.57885742188,,,2015.07.11/223602914_medium.png
1350,0,2015-07-10 06:56:57.674000,0,22.0703125,-11.71875,-11.328125,,armv6l,2.6.35.7,Dalvik/1.4.0 (Linux; U; Android 2.3.5; GT-S5360L Build/GINGERBREAD),223602912,21.09,-101.65,0,DECO-00000000-221b-4040-ffff-ffffbc585e7b,-0.0054931640625,-62.946166992188,284.05151367188,,,2015.07.11/223602912_medium.png
1336,0,2015-07-10 06:56:59.238000,0,25.9765625,-10.9375,-12.890625,,armv6l,2.6.35.7,Dalvik/1.4.0 (Linux; U; Android 2.3.5; GT-S5360L Build/GINGERBREAD),223602908,21.09,-101.65,0,DECO-00000000-221b-4040-ffff-ffffbc585e7b,-0.0054931640625,-62.946166992188,283.52966308594,,,2015.07.11/223602908_medium.png
1310,0,2015-07-10 06:57:00.787000,0,25.9765625,-10.9375,-15.234375,,armv6l,2.6.35.7,Dalvik/1.4.0 (Linux; U; Android 2.3.5; GT-S5360L Build/GINGERBREAD),223602904,21.09,-101.65,0,DECO-00000000-221b-4040-ffff-ffffbc585e7b,-0.0054931640625,-64.984130859375,284.58984375,,,2015.07.11/223602904_medium.png
1306,0,2015-07-10 06:57:02.325000,0,25.1953125,-11.71875,-12.890625,,armv6l,2.6.35.7,Dalvik/1.4.0 (Linux; U; Android 2.3.5; GT-S5360L Build/GINGERBREAD),223602902,21.09,-101.65,0,DECO-00000000-221b-4040-ffff-ffffbc585e7b,-0.0054931640625,-62.946166992188,283.1396484375,,,2015.07.11/223602902.png
1289,0,2015-07-10 06:57:03.853000,0,22.8515625,-11.71875,-12.109375,,armv6l,2.6.35.7,Dalvik/1.4.0 (Linux; U; Android 2.3.5; GT-S5360L Build/GINGERBREAD),223602898,21.09,-101.65,0,DECO-00000000-221b-4040-ffff-ffffbc585e7b,-0.0054931640625,-62.946166992188,283.5791015625,,,2015.07.11/223602898.png
1281,0,2015-07-10 06:57:05.373000,0,25.1953125,-11.71875,-12.890625,,armv6l,2.6.35.7,Dalvik/1.4.0 (Linux; U; Android 2.3.5; GT-S5360L Build/GINGERBREAD),223602896,21.09,-101.65,0,DECO-00000000-221b-4040-ffff-ffffbc585e7b,-0.0054931640625,-62.946166992188,283.5791015625,,,2015.07.11/223602896.png
1422,0,2015-07-10 06:57:06.863000,0,25.1953125,-10.9375,-12.109375,,armv6l,2.6.35.7,Dalvik/1.4.0 (Linux; U; Android 2.3.5; GT-S5360L Build/GINGERBREAD),223602892,21.09,-101.65,0,DECO-00000000-221b-4040-ffff-ffffbc585e7b,0.8953857421875,-62.946166992188,283.14514160156,,,2015.07.11/223602892.png
1323,0,2015-07-10 06:57:08.496000,0,25.1953125,-10.9375,-12.890625,,armv6l,2.6.35.7,Dalvik/1.4.0 (Linux; U; Android 2.3.5; GT-S5360L Build/GINGERBREAD),223602888,21.09,-101.65,0,DECO-00000000-221b-4040-ffff-ffffbc585e7b,-0.0054931640625,-62.946166992188,284.07897949219,,,2015.07.11/223602888_medium.png
1360,0,2015-07-10 06:57:10.029000,0,25.1953125,-11.71875,-13.671875,,armv6l,2.6.35.7,Dalvik/1.4.0 (Linux; U; Android 2.3.5; GT-S5360L Build/GINGERBREAD),223602886,21.09,-101.65,0,DECO-00000000-221b-4040-ffff-ffffbc585e7b,0.8953857421875,-62.946166992188,284.09545898438,,,2015.07.11/223602886.png
832,0,2015-07-10 06:57:12.058000,0,25.9765625,-11.71875,-13.671875,,armv6l,2.6.35.7,Dalvik/1.4.0 (Linux; U; Android 2.3.5; GT-S5360L Build/GINGERBREAD),223602882,21.09,-101.65,0,DECO-00000000-221b-4040-ffff-ffffbc585e7b,0.8953857421875,-62.946166992188,285.08972167969,,,2015.07.11/223602882_medium.png
922,0,2015-07-10 06:57:14.905000,0,22.8515625,-11.71875,-12.109375,,armv6l,2.6.35.7,Dalvik/1.4.0 (Linux; U; Android 2.3.5; GT-S5360L Build/GINGERBREAD),223602878,21.09,-101.65,0,DECO-00000000-221b-4040-ffff-ffffbc585e7b,-0.0054931640625,-62.946166992188,283.10668945312,,,2015.07.11/223602878_medium.png
933,0,2015-07-10 06:57:16.378000,0,23.6328125,-11.71875,-12.890625,,armv6l,2.6.35.7,Dalvik/1.4.0 (Linux; U; Android 2.3.5; GT-S5360L Build/GINGERBREAD),223602876,21.09,-101.65,0,DECO-00000000-221b-4040-ffff-ffffbc585e7b,-0.0054931640625,-62.946166992188,283.72741699219,,,2015.07.11/223602876.png
918,0,2015-07-10 06:57:19.203000,0,23.6328125,-11.71875,-12.109375,,armv6l,2.6.35.7,Dalvik/1.4.0 (Linux; U; Android 2.3.5; GT-S5360L Build/GINGERBREAD),223602872,21.09,-101.65,0,DECO-00000000-221b-4040-ffff-ffffbc585e7b,-0.0054931640625,-62.946166992188,283.21655273438,,,2015.07.11/223602872_medium.png
976,0,2015-07-10 06:57:20.646000,0,25.1953125,-11.71875,-12.890625,,armv6l,2.6.35.7,Dalvik/1.4.0 (Linux; U; Android 2.3.5; GT-S5360L Build/GINGERBREAD),223602870,21.09,-101.65,0,DECO-00000000-221b-4040-ffff-ffffbc585e7b,0.8953857421875,-62.946166992188,283.58459472656,,,2015.07.11/223602870.png
945,0,2015-07-10 06:57:23.106000,0,25.1953125,-10.9375,-12.890625,,armv6l,2.6.35.7,Dalvik/1.4.0 (Linux; U; Android 2.3.5; GT-S5360L Build/GINGERBREAD),223602866,21.09,-101.65,0,DECO-00000000-221b-4040-ffff-ffffbc585e7b,-0.0054931640625,-62.946166992188,283.83178710938,,,2015.07.11/223602866_medium.png
1491,0,2015-07-10 06:57:24.376000,0,24.4140625,-11.71875,-12.890625,,armv6l,2.6.35.7,Dalvik/1.4.0 (Linux; U; Android 2.3.5; GT-S5360L Build/GINGERBREAD),223602862,21.09,-101.65,0,DECO-00000000-221b-4040-ffff-ffffbc585e7b,-0.0054931640625,-62.946166992188,283.25500488281,,,2015.07.11/223602862.png
1290,0,2015-07-10 06:57:26.084000,0,22.8515625,-11.71875,-12.109375,,armv6l,2.6.35.7,Dalvik/1.4.0 (Linux; U; Android 2.3.5; GT-S5360L Build/GINGERBREAD),223602860,21.09,-101.65,0,DECO-00000000-221b-4040-ffff-ffffbc585e7b,-0.0054931640625,-62.946166992188,284.68872070312,,,2015.07.11/223602860_medium.png
1386,0,2015-07-10 06:57:27.636000,0,25.1953125,-11.71875,-12.890625,,armv6l,2.6.35.7,Dalvik/1.4.0 (Linux; U; Android 2.3.5; GT-S5360L Build/GINGERBREAD),223602856,21.09,-101.65,0,DECO-00000000-221b-4040-ffff-ffffbc585e7b,-0.0054931640625,-62.946166992188,283.94165039062,,,2015.07.11/223602856_medium.png
1331,0,2015-07-10 06:57:29.240000,0,22.0703125,-11.71875,-11.328125,,armv6l,2.6.35.7,Dalvik/1.4.0 (Linux; U; Android 2.3.5; GT-S5360L Build/GINGERBREAD),223602854,21.09,-101.65,0,DECO-00000000-221b-4040-ffff-ffffbc585e7b,0.8953857421875,-62.946166992188,282.78259277344,,,2015.07.11/223602854.png
1335,0,2015-07-10 06:57:30.788000,0,24.4140625,-11.71875,-12.890625,,armv6l,2.6.35.7,Dalvik/1.4.0 (Linux; U; Android 2.3.5; GT-S5360L Build/GINGERBREAD),223602850,21.09,-101.65,0,DECO-00000000-221b-4040-ffff-ffffbc585e7b,0.8953857421875,-62.946166992188,284.73815917969,,,2015.07.11/223602850_medium.png
909,0,2015-07-10 06:57:35.845000,0,25.1953125,-11.71875,-13.671875,,armv6l,2.6.35.7,Dalvik/1.4.0 (Linux; U; Android 2.3.5; GT-S5360L Build/GINGERBREAD),223602846,21.09,-101.65,0,DECO-00000000-221b-4040-ffff-ffffbc585e7b,0.8953857421875,-62.946166992188,283.359375,,,2015.07.11/223602846_medium.png
928,0,2015-07-10 06:57:39.547000,0,25.1953125,-11.71875,-13.671875,,armv6l,2.6.35.7,Dalvik/1.4.0 (Linux; U; Android 2.3.5; GT-S5360L Build/GINGERBREAD),223602844,21.09,-101.65,0,DECO-00000000-221b-4040-ffff-ffffbc585e7b,0.8953857421875,-62.946166992188,283.37036132812,,,2015.07.11/223602844_medium.png
1173,0,2015-07-10 06:57:40.919000,0,25.9765625,-11.71875,-13.671875,,armv6l,2.6.35.7,Dalvik/1.4.0 (Linux; U; Android 2.3.5; GT-S5360L Build/GINGERBREAD),223602840,21.09,-101.65,0,DECO-00000000-221b-4040-ffff-ffffbc585e7b,-0.0054931640625,-62.946166992188,284.00756835938,,,2015.07.11/223602840_medium.png
1235,0,2015-07-10 06:57:42.391000,0,25.1953125,-11.71875,-13.671875,,armv6l,2.6.35.7,Dalvik/1.4.0 (Linux; U; Android 2.3.5; GT-S5360L Build/GINGERBREAD),223602838,21.09,-101.65,0,DECO-00000000-221b-4040-ffff-ffffbc585e7b,0.8953857421875,-62.946166992188,283.87573242188,,,2015.07.11/223602838_medium.png
1351,0,2015-07-10 06:57:43.846000,0,25.1953125,-11.71875,-12.890625,,armv6l,2.6.35.7,Dalvik/1.4.0 (Linux; U; Android 2.3.5; GT-S5360L Build/GINGERBREAD),223602834,21.09,-101.65,0,DECO-00000000-221b-4040-ffff-ffffbc585e7b,-0.0054931640625,-62.946166992188,283.359375,,,2015.07.11/223602834.png
1301,0,2015-07-10 06:57:45.426000,0,23.6328125,-11.71875,-12.109375,,armv6l,2.6.35.7,Dalvik/1.4.0 (Linux; U; Android 2.3.5; GT-S5360L Build/GINGERBREAD),223602830,21.09,-101.65,0,DECO-00000000-221b-4040-ffff-ffffbc585e7b,0.8953857421875,-62.946166992188,283.35388183594,,,2015.07.11/223602830.png
1304,0,2015-07-10 06:57:46.948000,0,25.1953125,-11.71875,-13.671875,,armv6l,2.6.35.7,Dalvik/1.4.0 (Linux; U; Android 2.3.5; GT-S5360L Build/GINGERBREAD),223602828,21.09,-101.65,0,DECO-00000000-221b-4040-ffff-ffffbc585e7b,-0.0054931640625,-62.946166992188,284.49096679688,,,2015.07.11/223602828_medium.png
1328,0,2015-07-10 06:57:48.463000,0,25.9765625,-11.71875,-13.671875,,armv6l,2.6.35.7,Dalvik/1.4.0 (Linux; U; Android 2.3.5; GT-S5360L Build/GINGERBREAD),223602824,21.09,-101.65,0,DECO-00000000-221b-4040-ffff-ffffbc585e7b,0.8953857421875,-62.946166992188,283.08471679688,,,2015.07.11/223602824.png
1295,0,2015-07-10 06:57:50.003000,0,25.1953125,-11.71875,-12.890625,,armv6l,2.6.35.7,Dalvik/1.4.0 (Linux; U; Android 2.3.5; GT-S5360L Build/GINGERBREAD),223602822,21.09,-101.65,0,DECO-00000000-221b-4040-ffff-ffffbc585e7b,-0.0054931640625,-62.946166992188,284.501953125,,,2015.07.11/223602822.png
1282,0,2015-07-10 06:57:51.510000,0,23.6328125,-11.71875,-12.890625,,armv6l,2.6.35.7,Dalvik/1.4.0 (Linux; U; Android 2.3.5; GT-S5360L Build/GINGERBREAD),223602818,21.09,-101.65,0,DECO-00000000-221b-4040-ffff-ffffbc585e7b,0.8953857421875,-62.946166992188,284.26025390625,,,2015.07.11/223602818.png
925,0,2015-07-10 06:57:54.155000,0,22.8515625,-11.71875,-12.109375,,armv6l,2.6.35.7,Dalvik/1.4.0 (Linux; U; Android 2.3.5; GT-S5360L Build/GINGERBREAD),223602814,21.09,-101.65,0,DECO-00000000-221b-4040-ffff-ffffbc585e7b,-0.0054931640625,-62.946166992188,283.19458007812,,,2015.07.11/223602814_medium.png
1032,0,2015-07-10 06:57:55.565000,0,22.0703125,-11.71875,-12.109375,,armv6l,2.6.35.7,Dalvik/1.4.0 (Linux; U; Android 2.3.5; GT-S5360L Build/GINGERBREAD),223602812,21.09,-101.65,0,DECO-00000000-221b-4040-ffff-ffffbc585e7b,-0.0054931640625,-62.946166992188,284.65026855469,,,2015.07.11/223602812_medium.png
1180,0,2015-07-10 06:57:56.903000,0,23.6328125,-11.71875,-12.890625,,armv6l,2.6.35.7,Dalvik/1.4.0 (Linux; U; Android 2.3.5; GT-S5360L Build/GINGERBREAD),223602808,21.09,-101.65,0,DECO-00000000-221b-4040-ffff-ffffbc585e7b,0.8953857421875,-62.946166992188,284.677734375,,,2015.07.11/223602808_medium.png
1201,0,2015-07-10 06:57:58.383000,0,25.1953125,-11.71875,-13.671875,,armv6l,2.6.35.7,Dalvik/1.4.0 (Linux; U; Android 2.3.5; GT-S5360L Build/GINGERBREAD),223602806,21.09,-101.65,0,DECO-00000000-221b-4040-ffff-ffffbc585e7b,-0.0054931640625,-62.946166992188,283.02429199219,,,2015.07.11/223602806.png
1282,0,2015-07-10 06:58:01.358000,0,25.9765625,-11.71875,-12.890625,,armv6l,2.6.35.7,Dalvik/1.4.0 (Linux; U; Android 2.3.5; GT-S5360L Build/GINGERBREAD),223602802,21.09,-101.65,0,DECO-00000000-221b-4040-ffff-ffffbc585e7b,0.8953857421875,-62.946166992188,284.52392578125,,,2015.07.11/223602802_medium.png
1173,0,2015-07-10 06:58:03.054000,0,25.1953125,-11.71875,-12.890625,,armv6l,2.6.35.7,Dalvik/1.4.0 (Linux; U; Android 2.3.5; GT-S5360L Build/GINGERBREAD),223602800,21.09,-101.65,0,DECO-00000000-221b-4040-ffff-ffffbc585e7b,-0.0054931640625,-62.946166992188,283.60107421875,,,2015.07.11/223602800.png
1305,0,2015-07-10 06:58:04.459000,0,25.1953125,-11.71875,-12.890625,,armv6l,2.6.35.7,Dalvik/1.4.0 (Linux; U; Android 2.3.5; GT-S5360L Build/GINGERBREAD),223602796,21.09,-101.65,0,DECO-00000000-221b-4040-ffff-ffffbc585e7b,-0.0054931640625,-62.946166992188,284.33166503906,,,2015.07.11/223602796_medium.png
1296,0,2015-07-10 06:58:05.978000,0,23.6328125,-11.71875,-12.890625,,armv6l,2.6.35.7,Dalvik/1.4.0 (Linux; U; Android 2.3.5; GT-S5360L Build/GINGERBREAD),223602792,21.09,-101.65,0,DECO-00000000-221b-4040-ffff-ffffbc585e7b,-0.0054931640625,-64.984130859375,284.27673339844,,,2015.07.11/223602792.png
1327,0,2015-07-10 06:58:07.492000,0,25.1953125,-11.71875,-13.671875,,armv6l,2.6.35.7,Dalvik/1.4.0 (Linux; U; Android 2.3.5; GT-S5360L Build/GINGERBREAD),223602788,21.09,-101.65,0,DECO-00000000-221b-4040-ffff-ffffbc585e7b,-0.0054931640625,-62.946166992188,283.67797851562,,,2015.07.11/223602788.png
1368,0,2015-07-10 06:58:09.045000,0,25.1953125,-11.71875,-12.890625,,armv6l,2.6.35.7,Dalvik/1.4.0 (Linux; U; Android 2.3.5; GT-S5360L Build/GINGERBREAD),223602784,21.09,-101.65,0,DECO-00000000-221b-4040-ffff-ffffbc585e7b,-0.0054931640625,-62.946166992188,283.68896484375,,,2015.07.11/223602784_medium.png
1332,0,2015-07-10 06:58:10.628000,0,25.9765625,-11.71875,-13.671875,,armv6l,2.6.35.7,Dalvik/1.4.0 (Linux; U; Android 2.3.5; GT-S5360L Build/GINGERBREAD),223602780,21.09,-101.65,0,DECO-00000000-221b-4040-ffff-ffffbc585e7b,-0.0054931640625,-62.946166992188,283.98559570312,,,2015.07.11/223602780.png
1159,0,2015-07-10 09:14:17.696000,241,3.8125,1.5625,-47.8125,,armv7l,2.6.32.21-g7a207a4,Dalvik/1.2.0 (Linux; U; Android 2.2; PB99400 Build/FRF91),223603688,43.06,-89.44,0,DECO-ffffffff-85e3-b427-9611-987d0033c587,0,-7,341,,,2015.07.11/223603688_medium.png
1145,0,2015-07-10 15:08:19.068000,395,56.800003051758,-34,10,,armv7l,2.6.35.7-I9000XXJVR-CL425308,Dalvik/1.4.0 (Linux; U; Android 2.3.3; GT-I9000 Build/GINGERBREAD),223615933,37.57,15.05,0,DECO-00000000-3d3f-1b58-2315-6aad0033c587,1,3.0000002384186,239.00001525879,,,2015.07.11/223615933.png
1129,0,2015-07-10 15:25:36.025000,395,56.400001525879,-34,8.8000001907349,,armv7l,2.6.35.7-I9000XXJVR-CL425308,Dalvik/1.4.0 (Linux; U; Android 2.3.3; GT-I9000 Build/GINGERBREAD),223616507,37.57,15.05,0,DECO-00000000-3d3f-1b58-2315-6aad0033c587,1,4,239.00001525879,,,2015.07.11/223616507_medium.png
1115,0,2015-07-10 15:49:28.805000,395,57.600002288818,-34.400001525879,10,,armv7l,2.6.35.7-I9000XXJVR-CL425308,Dalvik/1.4.0 (Linux; U; Android 2.3.3; GT-I9000 Build/GINGERBREAD),223617364,37.57,15.05,0,DECO-00000000-3d3f-1b58-2315-6aad0033c587,1,3.0000002384186,239.00001525879,,,2015.07.11/223617364.png
1150,0,2015-07-10 16:04:21.066000,395,57.200004577637,-34,9.2000007629394,,armv7l,2.6.35.7-I9000XXJVR-CL425308,Dalvik/1.4.0 (Linux; U; Android 2.3.3; GT-I9000 Build/GINGERBREAD),223617923,37.57,15.05,0,DECO-00000000-3d3f-1b58-2315-6aad0033c587,1,3.0000002384186,239.00001525879,,,2015.07.11/223617923_medium.png
1128,0,2015-07-10 16:04:38.438000,395,56.800003051758,-34.400001525879,9.2000007629394,,armv7l,2.6.35.7-I9000XXJVR-CL425308,Dalvik/1.4.0 (Linux; U; Android 2.3.3; GT-I9000 Build/GINGERBREAD),223617931,37.57,15.05,0,DECO-00000000-3d3f-1b58-2315-6aad0033c587,1,4,239.00001525879,,,2015.07.11/223617931_medium.png
1143,0,2015-07-10 16:15:47.117000,395,57.200004577637,-34.800003051758,10,,armv7l,2.6.35.7-I9000XXJVR-CL425308,Dalvik/1.4.0 (Linux; U; Android 2.3.3; GT-I9000 Build/GINGERBREAD),223618306,37.57,15.05,0,DECO-00000000-3d3f-1b58-2315-6aad0033c587,1,3.0000002384186,239.00001525879,,,2015.07.11/223618306.png
1173,0,2015-07-10 16:16:04.831000,395,57.200004577637,-33.600002288818,9.2000007629394,,armv7l,2.6.35.7-I9000XXJVR-CL425308,Dalvik/1.4.0 (Linux; U; Android 2.3.3; GT-I9000 Build/GINGERBREAD),223618320,37.57,15.05,0,DECO-00000000-3d3f-1b58-2315-6aad0033c587,1,3.0000002384186,240.00001525879,,,2015.07.11/223618320_medium.png
1117,0,2015-07-10 18:21:28.310000,395,84.000007629394,8.4000005722046,-38,,armv7l,2.6.35.7-I9000XXJVR-CL425308,Dalvik/1.4.0 (Linux; U; Android 2.3.3; GT-I9000 Build/GINGERBREAD),223622811,37.57,15.05,0,DECO-00000000-3d3f-1b58-2315-6aad0033c587,1,3.0000002384186,274,,,2015.07.11/223622811_medium.png
1180,0,2015-07-11 00:22:17.072000,276,3.8125,1.5625,-47.8125,,armv7l,2.6.32.21-g7a207a4,Dalvik/1.2.0 (Linux; U; Android 2.2; PB99400 Build/FRF91),223636805,43.06,-89.44,0,DECO-ffffffff-85e3-b427-9611-987d0033c587,0,-7,341,,,2015.07.11/223636805_medium.png
1527,0,2015-07-11 03:26:39.229000,292,3.8125,1.5625,-47.8125,,armv7l,2.6.32.21-g7a207a4,Dalvik/1.2.0 (Linux; U; Android 2.2; PB99400 Build/FRF91),223643103,43.06,-89.44,0,DECO-ffffffff-85e3-b427-9611-987d0033c587,0,-7,341,,,2015.07.11/223643103.png
1266,0,2015-07-11 06:36:32.352000,249,3.8125,1.5625,-47.8125,,armv7l,2.6.32.21-g7a207a4,Dalvik/1.2.0 (Linux; U; Android 2.2; PB99400 Build/FRF91),223649503,43.06,-89.44,0,DECO-ffffffff-85e3-b427-9611-987d0033c587,0,-7,341,,,2015.07.11/223649503.png
986,0,2015-07-11 08:17:59.906000,0,6.1575527191162,-57.399433135986,-14.010929107666,,armv7l,3.4.0-perf-g8fa3dae,Dalvik/2.1.0 (Linux; U; Android 5.0.2; C6602 Build/10.6.A.0.454),223656304,0,0,0,DECO-00000000-115e-7228-6309-ea3e3a0a8ef0,-1.1431895494461,-101.6417388916,347.7067565918,,,2015.07.12/223656304_medium.png
891,0,2015-07-11 08:18:08.057000,0,6.3289442062378,-57.73002243042,-14.71919631958,,armv7l,3.4.0-perf-g8fa3dae,Dalvik/2.1.0 (Linux; U; Android 5.0.2; C6602 Build/10.6.A.0.454),223656310,0,0,0,DECO-00000000-115e-7228-6309-ea3e3a0a8ef0,-1.1080352067947,-101.60096740723,347.70706176758,,,2015.07.12/223656310.png
975,0,2015-07-11 08:18:10.112000,0,6.7244782447815,-58.204696655273,-13.997505187988,,armv7l,3.4.0-perf-g8fa3dae,Dalvik/2.1.0 (Linux; U; Android 5.0.2; C6602 Build/10.6.A.0.454),223656318,0,0,0,DECO-00000000-115e-7228-6309-ea3e3a0a8ef0,-1.2037222385407,-101.66957855225,347.70559692383,,,2015.07.12/223656318_medium.png
1069,0,2015-07-11 08:18:11.444000,0,6.7336297035217,-57.937942504883,-14.374663352966,,armv7l,3.4.0-perf-g8fa3dae,Dalvik/2.1.0 (Linux; U; Android 5.0.2; C6602 Build/10.6.A.0.454),223656326,0,0,0,DECO-00000000-115e-7228-6309-ea3e3a0a8ef0,-1.1322067975998,-101.6724319458,347.70541381836,,,2015.07.12/223656326_medium.png
954,0,2015-07-11 08:18:12.814000,0,5.7826895713806,-57.689212799072,-13.911574363708,,armv7l,3.4.0-perf-g8fa3dae,Dalvik/2.1.0 (Linux; U; Android 5.0.2; C6602 Build/10.6.A.0.454),223656336,0,0,0,DECO-00000000-115e-7228-6309-ea3e3a0a8ef0,-1.1633265018463,-101.65837860107,347.70559692383,,,2015.07.12/223656336.png
1523,0,2015-07-11 10:37:08.104000,251,3.8125,1.5625,-47.8125,,armv7l,2.6.32.21-g7a207a4,Dalvik/1.2.0 (Linux; U; Android 2.2; PB99400 Build/FRF91),223657437,43.06,-89.44,0,DECO-ffffffff-85e3-b427-9611-987d0033c587,0,-7,341,,,2015.07.12/223657437.png
1180,0,2015-07-11 11:26:45.784000,226,3.8125,1.5625,-47.8125,,armv7l,2.6.32.21-g7a207a4,Dalvik/1.2.0 (Linux; U; Android 2.2; PB99400 Build/FRF91),223659033,43.06,-89.44,0,DECO-ffffffff-85e3-b427-9611-987d0033c587,0,-7,341,,,2015.07.12/223659033.png
1133,0,2015-07-12 06:23:49.601000,225,3.8125,1.5625,-47.8125,,armv7l,2.6.32.21-g7a207a4,Dalvik/1.2.0 (Linux; U; Android 2.2; PB99400 Build/FRF91),223698251,43.06,-89.44,0,DECO-ffffffff-85e3-b427-9611-987d0033c587,0,-7,341,,,2015.07.12/223698251.png
1289,0,2015-07-12 06:51:30.706000,214,-6.5,64.5,-12.0625,,armv7l,3.4.42-g19638c4,Dalvik/2.1.0 (Linux; U; Android 5.1; XT1096 Build/LPE23.32-25-3),223699294,43.07,-89.39,0,DECO-ffffffff-84c2-5db2-8e25-612a58eb754a,-0.5,-2.375,5.78125,,,2015.07.12/223699294_medium.png
1131,0,2015-07-12 10:49:00.465000,250,3.8125,1.5625,-47.8125,,armv7l,2.6.32.21-g7a207a4,Dalvik/1.2.0 (Linux; U; Android 2.2; PB99400 Build/FRF91),223707492,43.06,-89.44,0,DECO-ffffffff-85e3-b427-9611-987d0033c587,0,-7,341,,,2015.07.13/223707492_medium.png
949,0,2015-07-12 16:36:51.874000,0,8.8958654403687,-51.837562561035,-6.6033926010132,,armv7l,3.4.0-perf-g8fa3dae,Dalvik/2.1.0 (Linux; U; Android 5.0.2; C6602 Build/10.6.A.0.454),223719510,0,0,0,DECO-00000000-115e-7228-6309-ea3e3a0a8ef0,-1.197857260704,-107.93468475342,345.11779785156,,,2015.07.13/223719510.png
929,0,2015-07-12 16:36:52.997000,0,8.3425149917603,-52.74927520752,-6.0625605583191,,armv7l,3.4.0-perf-g8fa3dae,Dalvik/2.1.0 (Linux; U; Android 5.0.2; C6602 Build/10.6.A.0.454),223719514,0,0,0,DECO-00000000-115e-7228-6309-ea3e3a0a8ef0,-1.1718608140945,-107.99315643311,345.11654663086,,,2015.07.13/223719514.png
1084,0,2015-07-12 16:36:54.087000,0,8.3635931015015,-52.022315979004,-6.7348508834839,,armv7l,3.4.0-perf-g8fa3dae,Dalvik/2.1.0 (Linux; U; Android 5.0.2; C6602 Build/10.6.A.0.454),223719520,0,0,0,DECO-00000000-115e-7228-6309-ea3e3a0a8ef0,-1.2370706796646,-107.98217010498,345.11669921875,,,2015.07.13/223719520_medium.png
1000,0,2015-07-12 16:36:55.330000,0,8.09974193573,-51.77184677124,-6.8176031112671,,armv7l,3.4.0-perf-g8fa3dae,Dalvik/2.1.0 (Linux; U; Android 5.0.2; C6602 Build/10.6.A.0.454),223719524,0,0,0,DECO-00000000-115e-7228-6309-ea3e3a0a8ef0,-1.2225115299225,-107.9174041748,345.11804199219,,,2015.07.13/223719524_medium.png
943,0,2015-07-12 16:36:56.489000,0,7.9651832580566,-51.726875305176,-6.7144689559937,,armv7l,3.4.0-perf-g8fa3dae,Dalvik/2.1.0 (Linux; U; Android 5.0.2; C6602 Build/10.6.A.0.454),223719695,0,0,0,DECO-00000000-115e-7228-6309-ea3e3a0a8ef0,-1.2251518964768,-107.931640625,345.11767578125,,,2015.07.13/223719695.png
910,0,2015-07-12 16:36:57.591000,0,8.6151990890503,-51.802185058594,-6.4907250404358,,armv7l,3.4.0-perf-g8fa3dae,Dalvik/2.1.0 (Linux; U; Android 5.0.2; C6602 Build/10.6.A.0.454),223719711,0,0,0,DECO-00000000-115e-7228-6309-ea3e3a0a8ef0,-1.1801429986954,-107.94570922852,345.11734008789,,,2015.07.13/223719711_medium.png
951,0,2015-07-12 16:36:59.033000,0,8.7293500900269,-51.662525177002,-5.8256592750549,,armv7l,3.4.0-perf-g8fa3dae,Dalvik/2.1.0 (Linux; U; Android 5.0.2; C6602 Build/10.6.A.0.454),223719701,0,0,0,DECO-00000000-115e-7228-6309-ea3e3a0a8ef0,-1.1344521045685,-107.98439788818,345.11651611328,,,2015.07.13/223719701_medium.png
1038,0,2015-07-12 16:37:01.225000,0,8.124605178833,-51.647113800049,-6.5018367767334,,armv7l,3.4.0-perf-g8fa3dae,Dalvik/2.1.0 (Linux; U; Android 5.0.2; C6602 Build/10.6.A.0.454),223719719,0,0,0,DECO-00000000-115e-7228-6309-ea3e3a0a8ef0,-1.2419989109039,-107.94781494141,345.1171875,,,2015.07.13/223719719_medium.png
1018,0,2015-07-12 16:37:03.517000,0,8.7336025238037,-51.709949493408,-7.0629334449768,,armv7l,3.4.0-perf-g8fa3dae,Dalvik/2.1.0 (Linux; U; Android 5.0.2; C6602 Build/10.6.A.0.454),223719725,0,0,0,DECO-00000000-115e-7228-6309-ea3e3a0a8ef0,-1.1950058937073,-107.98485565185,345.11639404297,,,2015.07.13/223719725_medium.png
929,0,2015-07-12 16:37:05.817000,0,8.254861831665,-52.153060913086,-6.413815498352,,armv7l,3.4.0-perf-g8fa3dae,Dalvik/2.1.0 (Linux; U; Android 5.0.2; C6602 Build/10.6.A.0.454),223719707,0,0,0,DECO-00000000-115e-7228-6309-ea3e3a0a8ef0,-1.1500132083893,-107.990234375,345.11624145508,,,2015.07.13/223719707_medium.png
1078,0,2015-07-12 16:37:07.725000,0,8.5099630355835,-51.809448242188,-6.3365182876587,,armv7l,3.4.0-perf-g8fa3dae,Dalvik/2.1.0 (Linux; U; Android 5.0.2; C6602 Build/10.6.A.0.454),223719733,0,0,0,DECO-00000000-115e-7228-6309-ea3e3a0a8ef0,-1.2180188894272,-107.94602203369,345.11709594727,,,2015.07.13/223719733.png
966,0,2015-07-12 16:37:09.575000,0,8.0776605606079,-52.18314743042,-6.9408364295959,,armv7l,3.4.0-perf-g8fa3dae,Dalvik/2.1.0 (Linux; U; Android 5.0.2; C6602 Build/10.6.A.0.454),223719741,0,0,0,DECO-00000000-115e-7228-6309-ea3e3a0a8ef0,-1.1827696561813,-107.96525573731,345.11663818359,,,2015.07.13/223719741.png
1029,0,2015-07-12 16:37:11.581000,0,8.3634204864502,-51.425926208496,-6.72736120224,,armv7l,3.4.0-perf-g8fa3dae,Dalvik/2.1.0 (Linux; U; Android 5.0.2; C6602 Build/10.6.A.0.454),223719769,0,0,0,DECO-00000000-115e-7228-6309-ea3e3a0a8ef0,-1.1855261325836,-107.9214553833,345.11749267578,,,2015.07.13/223719769_medium.png
